{"data":[{"id":13269,"wikiDataId":"Q604385","type":"CITY","city":"Shizuishan","name":"Shizuishan","country":"People's Republic of China","countryCode":"CN","region":"Ningxia Hui Autonomous Region","regionCode":"NX","latitude":39.23333,"longitude":106.76944,"population":730400},{"id":13125,"wikiDataId":"Q713825","type":"ADM2","city":"Wanzhou","name":"Wanzhou","country":"People's Republic of China","countryCode":"CN","region":"Chongqing","regionCode":"CQ","latitude":30.9,"longitude":108.467,"population":1760500},{"id":15503,"wikiDataId":"Q1062154","type":"ADM2","city":"Changtu County","name":"Changtu County","country":"People's Republic of China","countryCode":"CN","region":"Liaoning","regionCode":"LN","latitude":42.78077,"longitude":124.10496,"population":847924},{"id":14874,"wikiDataId":"Q68862","type":"CITY","city":"Longyan","name":"Longyan","country":"People's Republic of China","countryCode":"CN","region":"Fujian","regionCode":"FJ","latitude":25.088056,"longitude":117.024444,"population":2640000},{"id":14338,"wikiDataId":"Q249007","type":"CITY","city":"Wuwei","name":"Wuwei","country":"People's Republic of China","countryCode":"CN","region":"Gansu","regionCode":"GS","latitude":37.92781,"longitude":102.63286,"population":1890000},{"id":13970,"wikiDataId":"Q208471","type":"CITY","city":"Kaifeng","name":"Kaifeng","country":"People's Republic of China","countryCode":"CN","region":"Henan","regionCode":"HA","latitude":34.79357,"longitude":114.34034,"population":4676159},{"id":14343,"wikiDataId":"Q404116","type":"CITY","city":"Pingdingshan","name":"Pingdingshan","country":"People's Republic of China","countryCode":"CN","region":"Henan","regionCode":"HA","latitude":33.73499,"longitude":113.29992,"population":4838000}],"links":[{"rel":"first","href":"/v1/geo/cities?offset=0&limit=7&minPopulation=500000"},{"rel":"prev","href":"/v1/geo/cities?offset=14&limit=7&minPopulation=500000"},{"rel":"next","href":"/v1/geo/cities?offset=28&limit=7&minPopulation=500000"},{"rel":"last","href":"/v1/geo/cities?offset=3283&limit=7&minPopulation=500000"}],"metadata":{"currentOffset":25,"totalCount":3284}}